City,Cloudiness,Country,Date,Humidity,Lat,Lng,Max Temp,Wind Speed
Ilulissat,0,GL,1595007795,52,69.22,-51.1,47.48,7.14
Hofn,75,IS,1595007795,50,64.25,-15.21,57.2,20.8
Jamestown,40,US,1595007656,60,42.1,-79.24,78.01,11.41
Ponta Delgada,75,PT,1595007218,73,37.73,-25.67,69.8,10.29
Hilo,90,US,1595007795,83,19.73,-155.09,73.4,4.7
Rikitea,100,PF,1595007796,83,-23.12,-134.97,73.31,11.48
George Town,20,MY,1595007543,94,5.41,100.34,78.8,3.36
Port Blair,98,IN,1595007199,81,11.67,92.75,80.65,8.3
Albany,87,US,1595007618,92,42.6,-73.97,75.99,1.01
Nanortalik,0,GL,1595007223,54,60.14,-45.24,49.3,13.18
Sturgeon Falls,20,CA,1595007796,61,46.36,-79.93,81.0,17.22
Busselton,84,AU,1595007796,74,-33.65,115.33,46.0,9.55
Torbay,90,CA,1595007796,100,47.67,-52.73,53.01,18.34
Ushuaia,0,AR,1595007690,92,-54.8,-68.3,30.2,1.7
Kapaa,40,US,1595007591,100,22.08,-159.32,79.0,4.7
Potam,5,MX,1595007797,36,27.6,-110.38,97.0,5.82
East London,0,ZA,1595007797,49,-33.02,27.91,63.68,8.55
Airai,23,TL,1595007797,100,-8.93,125.41,56.34,3.22
Mataura,0,NZ,1595007797,97,-46.19,168.86,28.71,2.3
Hobart,83,AU,1595007601,80,-42.88,147.33,41.0,8.05
Pevek,78,RU,1595007797,92,69.7,170.31,41.81,1.7
Bluff,33,NZ,1595007797,88,-46.6,168.33,35.87,5.5
Hermanus,0,ZA,1595007797,52,-34.42,19.23,62.31,5.7
Gushi,0,CN,1595007798,72,34.64,109.58,72.34,4.7
New Norfolk,93,AU,1595007798,91,-42.78,147.06,37.99,2.82
Poya,0,NC,1595007798,69,-21.35,165.15,60.82,1.74
Krasnyy Chikoy,48,RU,1595007798,79,50.36,108.75,45.07,2.55
Kavaratti,100,IN,1595007228,81,10.57,72.64,83.05,22.03
Constitución,100,CL,1595006981,92,-35.33,-72.42,54.9,21.99
Hithadhoo,100,MV,1595007541,76,-0.6,73.08,84.0,10.31
Ndélé,82,CF,1595007798,93,8.41,20.65,72.43,2.89
Rāvar,9,IR,1595007799,19,31.27,56.81,86.09,9.1
Butaritari,2,KI,1595007799,78,3.07,172.79,82.45,15.43
Dongsheng,36,CN,1595007799,76,39.82,109.98,62.49,5.21
Vaini,75,TO,1595007799,94,-21.2,-175.2,73.4,6.93
Cape Town,0,ZA,1595007597,39,-33.93,18.42,66.2,10.29
Lewisporte,75,CA,1595007799,34,49.25,-55.05,75.99,12.75
Zhangaözen,14,KZ,1595007204,25,43.3,52.8,88.09,10.67
Alofi,75,NU,1595007799,94,-19.06,-169.92,71.6,6.93
Bredasdorp,0,ZA,1595007734,66,-34.53,20.04,55.4,3.36
Saint-Philippe,75,RE,1595007800,72,-21.36,55.77,68.0,6.93
Punta Arenas,75,CL,1595007800,86,-53.15,-70.92,30.2,8.05
Nagato,40,JP,1595007800,88,34.38,131.2,71.6,5.82
Norman Wells,20,CA,1595007800,68,65.28,-126.83,66.2,2.24
Kuvshinovo,82,RU,1595007800,88,57.03,34.17,56.26,3.02
Māngrol,65,IN,1595007800,84,21.12,70.12,83.79,13.56
Kungurtug,78,RU,1595007800,76,50.6,97.52,47.16,1.86
Manokwari,17,ID,1595007800,74,-0.87,134.08,79.52,5.5
Deputatsky,19,RU,1595007801,89,69.3,139.9,36.52,4.07
Nouadhibou,75,MR,1595007801,83,20.93,-17.03,73.4,20.8
Arraial do Cabo,75,BR,1595007801,69,-22.97,-42.03,75.2,17.22
Blankenberge,20,BE,1595007801,53,51.31,3.13,77.0,4.7
Castro,52,BR,1595007201,58,-24.79,-50.01,71.69,5.41
Sitka,75,US,1595007244,76,57.05,-135.33,57.2,3.36
Provideniya,97,RU,1595007801,85,64.38,-173.3,52.23,1.05
Fortuna,1,US,1595007802,87,40.6,-124.16,63.0,6.93
Port Elizabeth,0,ZA,1595007802,44,-33.92,25.57,59.0,5.82
Iqaluit,90,CA,1595007802,100,63.75,-68.51,50.0,3.36
Puerto Ayora,93,EC,1595007802,65,-0.74,-90.35,77.0,6.93
Oranjemund,0,NA,1595007802,29,-28.55,16.43,65.68,4.43
Hirara,97,JP,1595007802,82,24.8,125.28,84.92,17.87
Gravelbourg,94,CA,1595007802,51,49.88,-106.55,74.53,15.28
Katsuura,90,JP,1595007218,100,35.13,140.3,69.01,4.7
Saint-Pierre,75,RE,1595007802,72,-21.34,55.48,68.0,6.93
Mehamn,100,NO,1595007238,72,71.04,27.85,59.0,4.7
Cabo San Lucas,5,MX,1595007598,48,22.89,-109.91,93.2,5.82
Grindavik,75,IS,1595007803,70,63.84,-22.43,46.4,31.09
Saint-Paul,20,RE,1595007803,82,-21.01,55.27,66.2,6.93
Carnarvon,0,AU,1595007011,82,-24.87,113.63,57.2,11.41
Berlevåg,99,NO,1595007803,72,70.86,29.09,59.0,4.7
Wewak,88,PG,1595007803,82,-3.55,143.63,78.3,5.32
Tuktoyaktuk,75,CA,1595007803,81,69.45,-133.04,48.2,10.29
Singarāyakonda,59,IN,1595007803,65,15.25,80.03,84.61,9.8
Barrow,90,US,1595007762,86,71.29,-156.79,33.8,17.22
Bagdarin,42,RU,1595007804,76,54.43,113.6,47.82,3.67
Lorengau,39,PG,1595007204,71,-2.02,147.27,82.33,6.67
Kumul,0,CN,1595007207,16,42.8,93.45,80.8,4.83
Klaksvík,18,FO,1595007023,93,62.23,-6.59,50.0,26.4
Port Alfred,0,ZA,1595007804,35,-33.59,26.89,64.69,10.54
Thinadhoo,100,MV,1595007523,75,0.53,72.93,83.98,10.04
Mahébourg,40,MU,1595007804,73,-20.41,57.7,71.6,12.75
Boa Vista,75,BR,1595007804,55,2.82,-60.67,89.6,8.05
Homer,90,US,1595007805,93,59.64,-151.55,57.99,2.13
Mareeba,59,AU,1595007805,89,-17.0,145.43,55.0,3.0
Atuona,4,PF,1595007805,76,-9.8,-139.03,79.3,15.93
Saint George,1,US,1595007672,21,37.1,-113.58,97.0,4.7
Chokurdakh,2,RU,1595007805,71,70.63,147.92,42.33,6.42
Saint Paul Harbor,90,US,1595007805,93,57.79,-152.41,55.4,4.7
Arlit,11,NE,1595007805,24,18.74,7.39,97.38,8.08
Aykhal,90,RU,1595007226,81,66.0,111.5,53.6,2.24
Burley,1,US,1595007806,41,42.54,-113.79,78.8,15.17
Miles City,1,US,1595007806,19,46.41,-105.84,91.4,18.34
Poletayevo,0,RU,1595007806,37,55.03,61.11,82.4,8.95
Ahipara,100,NZ,1595007015,91,-35.17,173.17,58.37,8.16
Olafsvik,93,IS,1595007222,83,64.89,-23.71,44.33,34.43
Korla,0,CN,1595007221,64,41.76,86.15,82.0,3.0
Cerveteri,41,IT,1595007806,51,41.99,12.09,80.6,8.05
Chapais,90,CA,1595007249,83,49.78,-74.85,69.8,10.29
Thaba-Tseka,0,LS,1595007806,49,-29.52,28.61,42.08,3.06
Tasiilaq,5,GL,1595007807,50,65.61,-37.64,53.6,5.82
Moroni,20,KM,1595007807,61,-11.7,43.26,78.8,20.8
Fairbanks,90,US,1595007003,93,64.84,-147.72,60.01,5.82
Kahului,20,US,1595007807,73,20.89,-156.47,79.0,4.59
Eureka,90,US,1595007217,93,40.8,-124.16,62.01,4.7
Saskylakh,100,RU,1595007807,86,71.92,114.08,49.41,10.02
Kargil,65,IN,1595007807,43,34.57,76.1,62.4,8.03
Khromtau,0,KZ,1595007807,28,50.25,58.43,76.98,8.99
Leningradskiy,21,RU,1595007031,87,69.38,178.42,38.16,15.08
Safi,11,MA,1595007669,74,32.3,-9.24,75.04,7.9
Breyten,0,ZA,1595007808,53,-26.3,29.99,42.01,4.83
Kavieng,89,PG,1595007808,71,-2.57,150.8,82.49,5.19
Kalmunai,90,LK,1595007808,76,7.42,81.82,83.1,3.69
Faro,0,PT,1595007642,58,37.02,-7.93,82.4,8.05
Port Hedland,0,AU,1595007808,77,-20.32,118.57,59.0,6.85
Viedma,100,AR,1595007532,61,-40.81,-63.0,57.99,5.99
Dingle,82,PH,1595006969,79,11.0,122.67,77.76,5.3
Pincher Creek,20,CA,1595007809,72,49.48,-113.95,66.0,5.82
Qaanaaq,100,GL,1595007809,63,77.48,-69.36,45.16,7.63
Leirvik,100,NO,1595007809,94,59.78,5.5,59.0,3.0
Pahrump,0,US,1595007809,15,36.21,-115.98,99.0,3.0
Qasigiannguit,0,GL,1595007809,50,68.82,-51.19,49.1,5.41
Singaraja,17,ID,1595007809,77,-8.11,115.09,78.39,6.04
San Juan,0,AR,1595007809,20,-31.54,-68.54,73.15,10.85
Killarney,75,IE,1595007810,88,52.05,-9.52,62.6,19.46
Kandrian,100,PG,1595007810,89,-6.22,149.55,77.49,11.07
Hamilton,40,US,1595007251,54,39.18,-84.53,89.01,3.36
Cururupu,16,BR,1595007810,64,-1.83,-44.87,85.42,3.65
Ilhabela,34,BR,1595007810,75,-23.78,-45.36,71.04,6.4
Zima,56,RU,1595007810,93,53.92,102.04,50.72,5.55
Bambous Virieux,40,MU,1595007810,73,-20.34,57.76,71.6,12.75
San Mateo del Mar,41,MX,1595007810,64,16.2,-95.0,87.93,24.63
Saint-Joseph,75,RE,1595007811,72,-21.37,55.62,68.0,6.93
Sibolga,76,ID,1595007811,84,1.74,98.78,75.92,4.74
Carandaí,28,BR,1595007811,46,-20.95,-43.81,73.17,3.36
Cardoso,1,BR,1595007811,28,-20.08,-49.91,86.45,6.06
Muscat,63,OM,1595007746,63,23.61,58.59,91.4,2.24
Sola,57,VU,1595007811,89,-13.88,167.55,78.87,15.32
Upernavik,3,GL,1595007811,64,72.79,-56.15,46.47,7.74
Honāvar,100,IN,1595007811,88,14.28,74.45,78.76,6.71
Pangoa,30,PE,1595007812,58,-12.12,-73.0,82.02,4.45
La Ronge,90,CA,1595007812,100,55.1,-105.28,57.2,6.93
Bengkulu,85,ID,1595007729,89,-3.8,102.27,75.94,4.68
Severo-Kuril'sk,78,RU,1595007812,90,50.68,156.12,49.82,7.63
Ginir,58,ET,1595007812,91,7.13,40.7,59.52,4.56
Mosquera,75,CO,1595007812,59,4.71,-74.23,62.6,11.41
Altay,0,CN,1595007812,36,47.87,88.12,71.06,6.49
College,75,US,1595007812,87,64.86,-147.8,59.0,3.36
Samarai,100,PG,1595007812,85,-10.62,150.67,75.43,13.49
Atambua,13,ID,1595007812,89,-9.11,124.89,69.71,5.57
Tuatapere,38,NZ,1595007007,85,-46.13,167.68,36.57,3.42
Lavrentiya,0,RU,1595007813,69,65.58,-171.0,48.42,3.27
Broome,75,US,1595007813,65,42.25,-75.83,84.0,12.75
Nikolskoye,1,RU,1595007813,43,59.7,30.79,71.6,11.18
Lagoa,45,PT,1595007813,77,39.05,-27.98,69.87,13.35
Salalah,40,OM,1595007237,83,17.02,54.09,84.2,5.82
Saint-Médard-en-Jalles,50,FR,1595007813,47,44.9,-0.72,80.6,13.87
Dudinka,90,RU,1595007239,93,69.41,86.18,48.2,11.18
Flinders,26,AU,1595007215,75,-34.58,150.86,55.99,4.0
Margate,28,GB,1595007813,47,51.38,1.39,79.0,8.05
Ponta do Sol,40,PT,1595007814,73,32.67,-17.1,73.4,6.93
Agra,71,IN,1595007660,48,27.18,78.02,95.94,7.7
Sydney,40,AU,1595007102,81,-33.87,151.21,53.6,10.29
Caravelas,77,BR,1595007251,59,-17.71,-39.25,74.84,7.92
Avarua,4,CK,1595007814,72,-21.21,-159.78,66.2,3.36
Sosnovo-Ozerskoye,55,RU,1595007814,74,52.52,111.54,45.21,7.2
Uthal,61,PK,1595007814,48,25.81,66.62,94.44,4.61
Ust-Maya,0,RU,1595007814,75,60.42,134.53,64.76,4.29
Tiksi,99,RU,1595007815,81,71.69,128.87,42.37,13.73
Colares,0,PT,1595007815,20,38.8,-9.45,95.0,8.05
Clarence Town,90,AU,1595007815,100,-32.58,151.78,53.01,10.29
Talnakh,90,RU,1595007815,93,69.49,88.4,48.2,11.18
Saint Anthony,20,US,1595006948,58,45.02,-93.22,89.01,10.29
Nome,90,US,1595007747,77,64.5,-165.41,61.0,1.9
Sungai Udang,20,MY,1595007815,88,2.27,102.14,80.6,2.24
Chimbote,55,PE,1595007815,71,-9.09,-78.58,65.64,12.44
Launceston,90,AU,1595007561,93,-41.45,147.17,44.01,4.7
Upata,11,VE,1595007624,54,8.01,-62.4,87.89,4.5
Comodoro Rivadavia,90,AR,1595007251,93,-45.87,-67.5,46.4,9.17
Havøysund,100,NO,1595007816,82,71.0,24.66,66.2,2.24
Quelimane,74,MZ,1595007238,83,-17.88,36.89,66.07,8.3
Shubarkuduk,45,KZ,1595007816,20,49.14,56.49,86.36,11.16
Takoradze,83,GH,1595007816,83,4.88,-1.76,76.41,11.14
Tiassalé,39,CI,1595007816,66,5.9,-4.83,80.4,5.66
Esperance,90,AU,1595007817,100,-33.87,121.9,48.2,12.75
Cavalcante,0,BR,1595007817,30,-13.8,-47.46,81.52,7.96
San Francisco,20,US,1595007803,63,37.77,-122.42,66.2,3.36
Diego de Almagro,0,CL,1595007817,15,-26.37,-70.05,78.15,8.81
Mae Hong Son,100,TH,1595007817,85,19.3,97.97,75.25,1.61
Alausí,75,EC,1595007817,42,-2.2,-78.83,64.4,11.41
Touros,40,BR,1595007817,74,-5.2,-35.46,82.4,11.41
Nelson Bay,90,AU,1595007223,100,-32.72,152.15,53.01,10.29
Sabang,96,ID,1595007818,78,5.89,95.32,82.22,15.59
Cherskiy,90,RU,1595007818,81,68.75,161.3,43.5,11.41
Portland,75,US,1595007555,68,45.52,-122.68,68.0,9.17
Yellowknife,75,CA,1595007657,55,62.46,-114.35,68.0,9.17
Thompson,75,CA,1595007818,60,55.74,-97.86,68.0,3.36
Mar del Plata,63,AR,1595007589,66,-38.0,-57.56,55.4,9.17
Glens Falls,90,US,1595007818,73,43.31,-73.64,77.0,12.75
Blagoyevo,9,RU,1595007818,88,63.37,47.92,61.3,1.68
Narsaq,20,GL,1595007819,24,60.92,-46.05,68.0,5.82
Bubaque,100,GW,1595007233,88,11.28,-15.83,77.41,24.2
Aktau,0,KZ,1595007819,40,43.65,51.2,87.8,15.66
Khatanga,100,RU,1595007819,93,71.97,102.5,39.36,13.38
Te Anau,0,NZ,1595007819,94,-45.42,167.72,30.15,0.81
Kraluv Dvur,40,CZ,1595007819,63,49.95,14.03,64.0,5.82
Gemeente Heerenveen,41,NL,1595007819,1,52.95,5.93,70.0,1.01
Longyearbyen,20,SJ,1595007231,76,78.22,15.64,50.0,6.93
Seydi,0,TM,1595007820,16,39.48,62.91,90.16,14.09
Doha,0,QA,1595007777,56,25.29,51.53,98.6,3.36
Chuguyevka,0,RU,1595007820,90,44.17,133.86,62.8,1.99
Flin Flon,90,CA,1595007820,82,54.77,-101.86,62.6,3.36
Sernur,4,RU,1595007820,84,56.93,49.15,58.32,6.85
Gizo Government Station,21,SB,1595007820,80,-8.1,156.84,81.86,14.43
Itarema,45,BR,1595007820,54,-2.92,-39.92,85.55,14.03
Texarkana,20,US,1595007820,59,33.43,-94.05,89.6,11.41
Aksarka,99,RU,1595007821,66,66.56,67.8,56.86,13.56
Uíge,0,AO,1595007241,30,-7.61,15.06,73.45,2.62
Cartagena,40,CO,1595007821,79,10.4,-75.51,87.8,9.17
Clyde River,75,CA,1595007821,81,70.47,-68.59,42.8,18.34
Mokrousovo,73,RU,1595007821,67,55.81,66.77,71.76,5.12
Pokhara,94,NP,1595007821,83,28.23,83.98,73.67,1.3
Araguaína,28,BR,1595007821,28,-7.19,-48.21,93.76,8.28
Huilong,93,CN,1595007821,98,31.81,121.66,77.0,1.01
Tual,13,ID,1595007253,85,-5.67,132.75,78.76,17.0
Rāwah,0,IQ,1595007822,11,34.48,41.91,92.57,12.01
Bilibino,47,RU,1595007822,78,68.05,166.44,52.2,6.06
Province of Brindisi,20,IT,1595007822,65,40.58,17.67,78.01,10.29
San Quintín,13,MX,1595007822,65,30.48,-115.95,73.76,11.32
Porto Walter,9,BR,1595007822,40,-8.27,-72.74,93.47,2.62
Khasan,3,RU,1595007252,94,42.43,130.64,62.65,1.74
Karratha,2,AU,1595007822,84,-20.74,116.85,68.34,5.84
Whitehorse,75,CA,1595007822,58,60.72,-135.05,59.0,14.99
Kashan,33,IR,1595007822,22,33.98,51.44,90.0,7.31
La Tuque,100,CA,1595007630,92,47.43,-72.78,67.55,5.3
Mount Gambier,96,AU,1595007823,81,-37.83,140.77,46.4,10.29
Quatre Cocos,40,MU,1595007823,73,-20.21,57.76,71.6,12.75
Kaduqli,44,SD,1595007823,76,11.02,29.72,74.59,2.64
Kirakira,99,SB,1595007823,85,-10.45,161.92,78.13,7.02
Dabakala,46,CI,1595007823,83,8.37,-4.43,78.69,4.07
Ballina,75,AU,1595007823,67,-28.87,153.57,59.0,11.41
Adrar,1,MR,1595007238,15,20.5,-10.07,104.97,9.44
Ambon City,6,ID,1595007823,15,-3.7,128.18,78.01,9.84
Medvedka,4,RU,1595007824,93,61.16,46.39,59.79,4.54
Shubarshi,54,KZ,1595007824,18,48.59,57.19,87.39,9.4
Faanui,12,PF,1595007824,77,-16.48,-151.75,77.72,10.02
Marystown,14,CA,1595007824,64,47.17,-55.15,63.3,9.51
Cidreira,24,BR,1595007233,84,-30.18,-50.21,62.28,6.46
Rawson,90,AR,1595007824,76,-43.3,-65.1,51.8,13.87
Rosendal,100,NO,1595007824,94,59.99,6.01,57.0,3.0
Bud,40,US,1595007824,65,39.45,-86.18,82.99,3.36
Arrondissement de La Rochelle,4,FR,1595007824,68,46.25,-1.0,71.6,19.46
Zyryanka,55,RU,1595007231,83,65.75,150.85,44.83,6.89
Mariehamn,53,AX,1595007825,72,60.1,19.93,66.2,12.75
Codrington,100,AU,1595007825,71,-38.27,141.97,47.43,15.05
San Ramon,1,US,1595007562,60,37.78,-121.98,75.99,5.82
Formosa do Rio Preto,0,BR,1595007825,28,-11.05,-45.19,87.89,8.05
Torata,6,PE,1595007826,21,-17.08,-70.84,70.36,7.78
Kitimat,90,CA,1595007826,76,54.05,-128.65,62.01,1.99
Milton,37,US,1595007826,57,34.13,-84.3,91.99,3.0
Williams Lake,75,CA,1595007826,66,52.14,-122.14,55.4,6.93
Plettenberg Bay,0,ZA,1595007826,29,-34.05,23.37,64.15,4.92
Rodrigues Alves,75,BR,1595007826,70,-7.74,-72.65,89.6,5.82
Praia,40,CV,1595007826,54,14.92,-23.51,82.4,18.34
Kondinskoye,10,RU,1595007827,63,59.65,67.41,75.52,7.36
Bathsheba,40,BB,1595007827,62,13.22,-59.52,87.8,14.99
Três Lagoas,0,BR,1595007827,25,-20.75,-51.68,88.86,8.99
Demmin,20,DE,1595007827,52,53.91,13.03,70.0,8.05
Tashtyp,58,RU,1595007827,79,52.79,89.9,60.44,3.49
Nerang,0,AU,1595007827,76,-27.98,153.33,59.0,1.01
Forsytheganj,10,BY,1595007827,80,52.63,29.73,63.79,4.65
Kishanganj,98,IN,1595007828,73,26.12,87.93,85.75,3.69
Švenčionėliai,70,LT,1595007828,71,55.17,26.0,63.72,1.21
Dikson,30,RU,1595007828,95,73.51,80.55,40.89,9.42
Vilyuysk,90,RU,1595007828,93,63.76,121.62,56.91,2.48
Ribeira Grande,40,PT,1595007828,60,38.52,-28.7,75.2,12.75
Jalu,0,LY,1595007828,22,29.03,21.55,92.64,7.09
Maceió,75,BR,1595007150,94,-9.67,-35.74,75.2,9.17
Lázaro Cárdenas,91,MX,1595007828,52,17.96,-102.2,92.12,1.01
Guánica,1,PR,1595007829,55,17.97,-66.91,89.01,7.0
Laas,40,IT,1595007829,67,46.62,10.7,60.8,8.05
Byron Bay,75,AU,1595007829,67,-28.65,153.62,59.0,11.41
Sherpur,91,BD,1595007829,85,25.02,90.02,82.56,5.64
Wanning,92,CN,1595007829,87,18.8,110.4,82.13,11.05
Labuhan,58,ID,1595007829,85,-6.88,112.21,76.51,9.15
Naze,75,JP,1595007830,88,28.37,129.48,80.6,6.93
Seoul,40,KR,1595007758,78,37.57,126.98,73.4,1.54
Hong Kong,47,HK,1595007830,70,22.29,114.16,86.0,5.99
Pinar del Río,19,CU,1595007830,58,22.42,-83.7,88.34,14.07
Buseresere,94,TZ,1595007830,34,-3.02,31.87,67.37,5.82
Chui,79,UY,1595007830,88,-33.7,-53.46,58.89,11.79
Isangel,14,VU,1595007831,81,-19.55,169.27,71.1,5.01
Muros,0,ES,1595007831,44,42.78,-9.06,90.0,11.99
Tutóia,47,BR,1595007831,54,-2.76,-42.27,87.46,3.98
Zhicheng,100,CN,1595007831,95,30.3,111.5,73.0,4.14
Auki,98,SB,1595007831,83,-8.77,160.7,77.85,5.01
Goderich,0,CA,1595007831,88,43.75,-81.72,80.01,1.99
Banepā,75,NP,1595007831,100,27.63,85.52,71.6,3.36
Geraldton,40,AU,1595007831,87,-28.77,114.6,48.2,4.7
Bethel,90,US,1595007832,94,41.37,-73.41,71.01,4.7
Tura,88,IN,1595007832,88,25.52,90.22,77.14,5.17
Arrondissement de Beaune,90,FR,1595007832,49,47.08,4.75,73.4,11.41
Kaitangata,0,NZ,1595007832,84,-46.28,169.85,39.99,1.01
Beringovskiy,88,RU,1595007832,82,63.05,179.32,51.26,1.43
Bazarnye Mataki,13,RU,1595007832,77,54.88,49.93,62.08,4.12
Chicama,3,PE,1595007832,55,-7.84,-79.15,72.79,11.01
Swan Hill,59,AU,1595007833,82,-35.34,143.55,40.55,6.51
Hambantota,84,LK,1595007833,75,6.12,81.12,81.05,13.82
Aljezur,0,PT,1595007833,52,37.32,-8.8,79.36,6.98
Roald,75,NO,1595007833,77,62.58,6.13,59.0,13.87
Tabou,35,CI,1595007833,74,4.42,-7.35,77.34,10.16
Wamba,70,NG,1595007561,90,8.93,8.6,74.39,3.49
Gari,11,RU,1595007833,93,59.43,62.35,68.25,10.8
Departamento de Maldonado,31,UY,1595007824,73,-34.67,-54.92,64.0,8.01
San Patricio,75,MX,1595007833,79,19.22,-104.7,84.2,6.93
Tilichiki,100,RU,1595007834,100,60.47,166.1,50.09,3.06
Abu Dhabi,2,AE,1595007830,67,24.47,54.37,100.4,9.17
Biltine,86,TD,1595007834,46,14.53,20.92,87.42,11.16
Peru,40,US,1595007834,65,40.75,-86.07,84.99,8.05
Salinas,90,US,1595007834,82,36.68,-121.66,61.0,5.82
Paamiut,9,GL,1595007834,69,61.99,-49.67,47.26,7.14
Assiniboia,100,CA,1595007834,54,49.63,-105.98,74.52,16.49
Middle Island,90,US,1595007834,88,40.88,-72.94,75.0,11.41
Walvis Bay,0,NA,1595007239,15,-22.96,14.51,75.2,9.17
Urucará,30,BR,1595007238,47,-2.54,-57.76,92.32,6.73
Yulara,0,AU,1595007835,38,-25.24,130.99,41.0,5.82
Japura,60,ID,1595006972,96,-0.32,102.35,74.61,2.57
Manaus,40,BR,1595007791,70,-3.1,-60.02,89.6,5.82
Pontianak,100,ID,1595007835,93,-0.03,109.33,75.76,2.39
Acaraú,60,BR,1595007835,53,-2.89,-40.12,86.18,13.33
Tezu,100,IN,1595007835,78,27.92,96.17,77.07,3.36
Preobrazheniye,1,RU,1595007836,89,42.9,133.91,62.06,7.83
Eyl,100,SO,1595007836,51,7.98,49.82,83.93,23.24
Foz,0,ES,1595007836,61,43.57,-7.25,75.0,8.99
Rørvik,75,NO,1595007836,93,64.86,11.24,57.2,14.99
Mackay,0,AU,1595007836,93,-21.15,149.2,42.8,5.82
El Rosario,75,MX,1595007836,59,24.26,-107.18,91.99,5.82
Rocha,31,UY,1595007836,80,-34.48,-54.33,60.66,13.29
Labuan,20,MY,1595007836,100,5.28,115.24,78.8,5.68
Mombetsu,0,JP,1595007837,79,44.35,143.35,62.01,5.99
Taree,90,AU,1595007837,87,-31.9,152.47,54.0,8.05
Concordia,90,AR,1595007240,87,-31.39,-58.02,53.6,9.17
Pauini,0,BR,1595007837,30,-7.71,-66.98,95.81,2.71
Puerto Escondido,40,MX,1595007240,62,15.85,-97.07,87.8,3.36
Nālūt,59,LY,1595007837,15,30.33,10.85,98.8,9.33
Souillac,40,MU,1595007837,73,-20.52,57.52,71.6,12.75
Progreso,75,MX,1595007238,55,21.28,-89.67,93.0,9.17
Hohhot,20,CN,1595007838,93,40.81,111.65,60.8,4.47
Aklavik,75,CA,1595007602,82,68.22,-135.01,55.4,5.82
Nandu,100,CN,1595007838,89,22.85,110.82,78.57,5.01
Caramay,0,PH,1595007838,73,10.18,119.24,80.46,0.98
Yar-Sale,84,RU,1595007838,67,66.83,70.83,52.88,10.13
São José da Coroa Grande,14,BR,1595007838,79,-8.9,-35.15,78.49,14.38
Camacha,20,PT,1595007839,73,33.08,-16.33,73.4,14.99
Laramie,1,US,1595007839,21,41.31,-105.59,80.01,5.82
Meulaboh,100,ID,1595007839,88,4.14,96.13,74.93,4.23
Yārāda,40,IN,1595007839,94,17.65,83.27,82.4,5.82
Vao,11,NC,1595007839,70,-22.67,167.48,68.97,15.7
Lethem,67,GY,1595007839,65,3.38,-59.8,86.31,2.73
Tessalit,10,ML,1595007839,8,20.2,1.01,106.0,6.11
Victor Harbor,83,AU,1595007840,86,-35.57,138.62,50.0,10.6
Suslovo,2,RU,1595007840,82,56.22,88.12,51.75,6.26
Cabedelo,75,BR,1595007547,88,-6.98,-34.83,78.8,12.75
Kununurra,0,AU,1595007841,34,-15.77,128.73,55.4,4.34
Amalfi,11,CO,1595007841,44,6.91,-75.08,81.36,4.03
Borovskoy,50,KZ,1595007841,75,53.8,64.15,73.11,7.36
Sulmona,96,IT,1595007842,83,42.05,13.93,70.0,5.82
Polunochnoye,90,RU,1595007842,97,60.87,60.42,62.94,3.47
San Cristobal,40,VE,1595007790,43,7.77,-72.22,89.6,23.04
Nicolás Bravo,40,MX,1595007842,63,18.45,-88.92,91.4,4.76
Half Moon Bay,75,US,1595007720,72,37.46,-122.43,70.0,7.16
Taixing,100,CN,1595007842,99,32.17,120.01,75.99,9.46
Coyhaique,90,CL,1595007842,85,-45.58,-72.07,33.8,4.7
Dicabisagan,100,PH,1595007842,83,17.08,122.42,79.43,3.38
Coquimbo,40,CL,1595007247,76,-29.95,-71.34,55.4,9.17
Manono,49,CD,1595007843,34,-7.3,27.42,71.51,6.67
São Gabriel da Cachoeira,17,BR,1595007843,83,-0.13,-67.09,82.81,3.94
Gorontalo,21,ID,1595007843,89,0.54,123.06,74.77,1.92
Borogontsy,9,RU,1595007843,63,62.67,131.17,65.37,6.08
Sinnamary,86,GF,1595007843,73,5.38,-52.95,84.69,10.25
Sikandarpur,73,IN,1595007843,64,26.05,84.05,90.25,9.53
Guerrero Negro,0,MX,1595007249,52,27.98,-114.06,78.17,11.63
Nísia Floresta,40,BR,1595007844,74,-6.09,-35.21,82.4,11.41
Verkhnyaya Inta,100,RU,1595007844,89,65.98,60.31,60.4,10.16
Hay River,75,CA,1595007844,77,60.82,-115.8,62.6,3.36
Bima,10,ID,1595007844,90,-8.47,118.72,73.83,4.0
Sassandra,38,CI,1595007844,78,4.95,-6.08,76.64,10.49
Neiafu,75,TO,1595007844,88,-18.65,-173.98,77.0,10.29
Kruisfontein,0,ZA,1595007844,32,-34.0,24.73,57.07,6.96
Altagracia de Orituco,15,VE,1595007844,81,9.86,-66.38,80.85,3.8
Manaure,8,CO,1595007845,51,11.78,-72.44,91.2,18.72
Lucapa,7,AO,1595007845,28,-8.42,20.74,70.84,5.64
Hasaki,75,JP,1595007845,100,35.73,140.83,66.2,4.7
Jinka,61,ET,1595007845,79,5.65,36.65,64.92,1.1
São Filipe,99,CV,1595007845,78,14.9,-24.5,75.94,10.58
Taltal,20,CL,1595007845,66,-25.4,-70.48,60.73,5.19
Coahuayana Viejo,40,MX,1595007845,74,18.73,-103.68,80.6,3.89
Roura,100,GF,1595007846,66,4.73,-52.33,87.8,6.93
Stromness,42,GB,1595007846,62,58.97,-3.3,60.01,8.05
Tsimlyansk,100,RU,1595007846,75,47.65,42.1,68.63,20.58
Huanren,25,CN,1595007846,90,41.26,125.37,63.86,2.51
Zhuhai,40,CN,1595007846,89,22.28,113.57,86.0,12.75
Dhangadhi,68,NP,1595007846,77,28.71,80.6,83.89,6.13
Araouane,17,ML,1595007846,15,18.9,-3.53,105.58,12.01
Verkhnevilyuysk,99,RU,1595007846,95,63.45,120.32,56.01,3.6
Zachary,40,US,1595007847,66,30.65,-91.16,91.0,10.29
Locri,12,IT,1595007847,61,38.24,16.26,80.6,14.99
Cockburn Town,22,TC,1595007847,77,21.46,-71.14,83.41,15.21
Zhigansk,92,RU,1595007847,95,66.77,123.37,52.36,3.74
Hualmay,43,PE,1595007847,64,-11.1,-77.61,65.8,10.74
Sanchursk,33,RU,1595007847,94,56.94,47.25,59.65,6.2
Dabola,93,GN,1595007847,88,10.75,-11.12,73.33,4.05
Hobyo,89,SO,1595007847,68,5.35,48.53,78.49,30.4
Sakakah,0,SA,1595007574,8,29.97,40.21,102.2,3.36
Skegness,7,GB,1595007848,47,53.14,0.34,77.0,10.29
Posadas,7,AR,1595007609,65,-27.37,-55.9,80.6,6.93
Yerbogachën,99,RU,1595007848,94,61.28,108.01,49.84,7.14
Esim,82,GH,1595007848,83,4.87,-2.24,76.26,9.57
Phan Thiet,96,VN,1595007848,87,10.93,108.1,78.44,2.3
Redwater,20,US,1595007848,59,33.36,-94.25,89.6,11.41
Qujing,100,CN,1595007848,93,25.48,103.78,63.66,9.24
Santa Maria,83,BR,1595007625,84,-29.68,-53.81,66.4,6.02
Valday,53,RU,1595007848,84,57.97,33.25,56.73,2.95
Ol'ga,0,RU,1595007849,91,43.74,135.29,59.09,3.51
Newport,27,GB,1595007849,75,51.59,-3.0,68.0,1.99
Kānkon,99,IN,1595007849,85,15.02,74.02,79.66,11.7
Lao Cai,100,VN,1595007849,77,22.48,103.95,78.66,1.34
Qaqortoq,20,GL,1595007849,24,60.72,-46.03,68.0,5.82
Ola,100,RU,1595007849,93,59.58,151.28,51.67,4.59
Portlethen,94,GB,1595007849,56,57.05,-2.13,68.0,16.11
Panzhihua,100,CN,1595007850,81,26.59,101.71,72.82,2.93
George,0,ZA,1595007850,27,-33.96,22.46,62.6,3.36
Tsabong,0,BW,1595007850,55,-26.02,22.4,46.35,3.0
Waipawa,97,NZ,1595007850,76,-41.41,175.52,51.8,6.93
Kokopo,68,PG,1595007850,82,-4.35,152.26,76.87,5.1
Solnechnyy,16,RU,1595007850,93,50.72,136.63,63.46,3.02
Lebu,85,CL,1595007850,86,-37.62,-73.65,54.27,17.16
Puteyets,93,RU,1595007850,95,65.17,57.09,61.16,4.76
Aktash,0,RU,1595007850,91,50.3,87.73,46.67,1.03
Laguna,1,US,1595007851,53,38.42,-121.42,75.0,9.17
Mildura,31,AU,1595007851,86,-34.2,142.15,39.99,5.82
Porto-Novo,40,BJ,1595007851,88,6.5,2.6,77.0,9.17
Baracoa,100,CU,1595007851,65,20.35,-74.5,86.29,8.9
Blejoi,9,RO,1595007851,78,45.0,26.02,66.0,8.34
Anakapalle,40,IN,1595007851,94,17.68,83.02,82.4,5.82
Bānda,50,IN,1595007851,49,25.48,80.33,94.82,7.02
Sidrolândia,1,BR,1595007684,29,-20.93,-54.96,87.8,11.41
Bundaberg,0,AU,1595007852,81,-24.85,152.35,51.01,6.46
Mahanje,42,TZ,1595007852,80,-9.93,35.33,51.46,3.13
Tigil',100,RU,1595007852,89,57.8,158.67,53.33,9.4
Husavik,90,IS,1595007852,81,66.04,-17.34,46.4,23.04
Moose Factory,75,CA,1595007852,50,51.26,-80.61,77.0,16.11
Crestview,40,US,1595007852,49,30.76,-86.57,93.99,11.41
Lata,0,PT,1595007852,40,40.16,-8.33,100.99,6.89
Iracoubo,81,GF,1595007852,79,5.48,-53.2,83.25,9.95
Baghdad,0,IQ,1595007853,14,33.34,44.4,104.0,11.41
Bakel,28,SN,1595007853,43,14.9,-12.46,93.13,1.01
Port Augusta,92,AU,1595007853,44,-32.5,137.77,57.2,12.75
Río Gallegos,90,AR,1595007623,92,-51.62,-69.22,23.0,1.12
Hell,75,NO,1595007853,87,63.45,10.9,59.0,11.41
Guanare,17,VE,1595007853,67,9.04,-69.74,85.8,4.65
Fasa,75,IR,1595007853,23,28.94,53.65,87.8,13.87
Nuuk,20,GL,1595007853,41,64.18,-51.72,59.0,11.41
Esperantinópolis,17,BR,1595007854,42,-4.87,-44.71,90.93,4.61
Asău,50,RO,1595007854,76,46.43,26.4,69.01,1.61
Quang Ngai,49,VN,1595007854,86,15.12,108.8,77.58,5.06
La Romana,40,DO,1595007673,63,18.43,-68.97,91.4,11.41
Puerto del Rosario,23,ES,1595007854,78,28.5,-13.86,78.8,14.99
Carnot,89,CF,1595007854,90,4.94,15.87,71.69,2.17
Vostok,29,RU,1595007854,94,46.49,135.88,61.21,3.51
Sobolevo,71,RU,1595007854,89,54.43,31.9,59.88,4.07
Hays,21,US,1595007854,51,30.05,-98.03,96.01,5.99
Fort-Shevchenko,31,KZ,1595007855,55,44.51,50.26,83.46,14.14
Port Macquarie,32,AU,1595007855,80,-31.43,152.92,55.99,1.01
Morropón,22,PE,1595007855,39,-5.18,-79.97,84.99,6.58
Arrondissement de Saint-Malo,75,FR,1595007855,82,48.5,-1.83,66.99,11.41
Gao,68,ML,1595007855,42,16.64,1.64,90.36,10.33
Abhā,98,SA,1595007565,38,18.22,42.51,75.2,11.41
Shimoda,100,JP,1595007855,96,34.67,138.95,63.0,1.01
Finschhafen,100,PG,1595007855,87,-6.6,147.87,77.04,5.19
Port-Gentil,75,GA,1595007856,88,-0.72,8.78,77.0,13.18
Dickinson,90,US,1595007654,94,29.46,-95.05,82.0,8.84
Broken Hill,33,AU,1595007856,58,-31.95,141.43,46.4,9.17
Belmonte,75,BR,1595007856,73,-15.86,-38.88,75.2,6.93
Ilo,90,PE,1595007856,68,-17.64,-71.34,64.4,4.7
Petra,0,JO,1595007856,56,30.32,35.48,67.3,7.2
Namatanai,82,PG,1595007856,76,-3.67,152.43,79.36,3.18
Opuwo,0,NA,1595007856,34,-18.06,13.84,59.43,10.98
Lovozero,68,RU,1595007857,65,68.0,35.01,65.8,1.77
Vicksburg,1,US,1595007603,66,32.35,-90.88,87.8,5.82
Kiryat Gat,0,IL,1595007857,64,31.61,34.76,81.0,3.83
Winston,40,US,1595007857,55,28.03,-82.01,93.0,13.87
Sechura,1,PE,1595007857,58,-5.56,-80.82,72.86,12.62
Topolobampo,20,MX,1595007857,38,25.6,-109.05,97.0,9.17
Pacifica,20,US,1595007857,63,37.61,-122.49,66.99,3.36
Manche,4,FR,1595007857,64,49.0,-1.17,71.6,10.29
Bosaso,100,SO,1595007857,43,11.28,49.18,93.29,5.21
Strelka,78,RU,1595007858,70,58.07,93.03,52.2,6.4
Pulaski,75,US,1595007858,66,34.77,-92.3,91.0,6.93
Shingū,99,JP,1595007858,93,33.73,135.98,72.32,3.29
Caticlan,80,PH,1595007858,72,11.93,121.96,83.91,8.5
Durrës,20,AL,1595007622,61,41.32,19.44,77.0,5.82
Maïné Soroa,65,NE,1595007858,66,13.21,12.02,80.98,16.08
Farafangana,82,MG,1595007858,79,-22.82,47.83,65.77,8.52
Andújar,1,ES,1595007760,24,38.04,-4.05,100.99,4.0
Belaya Gora,0,RU,1595007859,70,68.53,146.42,45.81,3.85
Abu Samrah,0,SY,1595007859,38,35.3,37.18,75.96,11.03
Myitkyina,100,MM,1595007859,96,25.38,97.4,74.34,1.7
Jinchang,100,CN,1595007859,50,38.5,102.17,66.09,9.89
Ayan,99,RU,1595007859,95,56.45,138.17,52.99,2.15
Carutapera,54,BR,1595007859,75,-1.2,-46.02,82.58,7.72
Liverpool,93,GB,1595007859,72,53.41,-2.98,70.0,9.17
Taunggyi,100,MM,1595007859,100,20.78,97.03,65.14,4.0
Burns Lake,5,CA,1595007680,49,54.23,-125.75,61.57,6.42
Lüderitz,0,NA,1595007860,21,-26.65,15.16,71.6,8.05
Richards Bay,0,ZA,1595007860,70,-28.78,32.04,58.39,6.98
Fes,40,MA,1595007720,17,34.04,-5.0,104.0,13.87
Mossamedes,19,AO,1595007860,47,-15.2,12.15,72.37,6.42
Nouakchott,3,MR,1595007860,65,18.09,-15.98,82.4,18.34
Tegul'det,0,RU,1595007860,88,57.31,88.17,49.41,4.05
Saldanha,0,ZA,1595007861,51,-33.01,17.94,60.8,5.82
Monte Alegre de Minas,0,BR,1595007736,30,-18.87,-48.88,81.77,8.68
Sur,97,OM,1595007861,68,22.57,59.53,86.5,15.48
Brae,40,GB,1595007861,82,60.4,-1.35,55.4,13.87
Robertsport,88,LR,1595007861,77,6.75,-11.37,77.52,10.6
Port Hardy,40,CA,1595007755,72,50.7,-127.42,60.8,13.87
Lae,98,PG,1595007861,84,-6.72,146.98,76.01,2.68
Bukachacha,21,RU,1595007861,92,52.98,116.92,55.11,1.63
Loukhi,9,RU,1595007861,59,66.08,33.04,63.52,2.15
Gazojak,8,TM,1595007861,15,41.19,61.4,91.4,16.42
Vanavara,98,RU,1595007862,91,60.34,102.28,50.05,9.33
Crateús,0,BR,1595007862,24,-5.18,-40.68,92.14,8.61
Havelock,1,US,1595007797,54,34.88,-76.9,91.4,9.17
Yima,13,CN,1595007862,1,34.74,111.88,72.0,1.83
Burnie,100,AU,1595007862,88,-41.07,145.92,45.0,3.0
Haines Junction,100,CA,1595007862,60,60.75,-137.51,56.14,6.29
Conceição do Araguaia,3,BR,1595007862,27,-8.26,-49.26,94.68,4.76
Los Llanos de Aridane,20,ES,1595007862,73,28.66,-17.92,75.99,13.87
Youkounkoun,80,GN,1595007862,82,12.53,-13.13,78.35,10.11
Plungė,50,LT,1595007863,60,55.91,21.84,71.6,5.82
Caucayá,20,CO,1595007863,66,-0.19,-74.78,85.37,2.42
Cap-aux-Meules,75,CA,1595007863,39,47.38,-61.86,66.2,8.05
Ayr,90,GB,1595007863,93,55.46,-4.63,57.2,6.93
Ust-Nera,100,RU,1595007863,67,64.57,143.2,56.7,3.2
